<?xml version="1.0" encoding="UTF-8"?><kml xmlns="http://earth.google.com/kml/2.0"><Document><name>A_GesamtdateiPnts2.shp</name><Style id="Mapit"><IconStyle><color>FFFFFFFF</color><scale>1.0</scale><Icon><href>root://icons/palette-4.png</href><x>64</x><w>32</w><h>32</h>  </Icon></IconStyle><BalloonStyle ><text>$[description]</text><color>FFFFFFFF</color></BalloonStyle></Style><Style id="shp2kml"><IconStyle><color>FFFFFFFF</color><scale>1.0</scale><Icon><href>root://icons/palette-4.png</href><x>64</x><w>32</w><h>32</h></Icon></IconStyle><BalloonStyle ><text>$[description]</text><color>FFFFFFFF</color></BalloonStyle><LineStyle><color>FFFF0000</color><width>1</width></LineStyle><PolyStyle><color>FF408080</color></PolyStyle></Style><Folder><name>Features</name><Snippet>Legend: Single Symbol</Snippet><open>0</open><visibility>1</visibility><Placemark><name>Augsburg</name><Snippet></Snippet><styleUrl>#shp2kml</styleUrl><Point><extrude>0</extrude><altitudeMode>clampedToGround</altitudeMode><coordinates>10.8923333333,48.3696666667,0 </coordinates></Point></Placemark><Placemark><name>Bamberg</name><Snippet></Snippet><styleUrl>#shp2kml</styleUrl><Point><extrude>0</extrude><altitudeMode>clampedToGround</altitudeMode><coordinates>10.8900000964,49.8942176751,0 </coordinates></Point></Placemark><Placemark><name>Brandenburg</name><Snippet></Snippet><styleUrl>#shp2kml</styleUrl><Point><extrude>0</extrude><altitudeMode>clampedToGround</altitudeMode><coordinates>12.5431666667,52.4071666667,0 </coordinates></Point></Placemark><Placemark><name>Chiemsee</name><Snippet></Snippet><styleUrl>#shp2kml</styleUrl><Point><extrude>0</extrude><altitudeMode>clampedToGround</altitudeMode><coordinates>12.4006666667,47.8571666667,0 </coordinates></Point></Placemark><Placemark><name>Eichstätt</name><Snippet></Snippet><styleUrl>#shp2kml</styleUrl><Point><extrude>0</extrude><altitudeMode>clampedToGround</altitudeMode><coordinates>11.1840000000,48.8901666667,0 </coordinates></Point></Placemark><Placemark><name>Freising</name><Snippet></Snippet><styleUrl>#shp2kml</styleUrl><Point><extrude>0</extrude><altitudeMode>clampedToGround</altitudeMode><coordinates>11.7426666667,48.4016666667,0 </coordinates></Point></Placemark><Placemark><name>Halberstadt</name><Snippet></Snippet><styleUrl>#shp2kml</styleUrl><Point><extrude>0</extrude><altitudeMode>clampedToGround</altitudeMode><coordinates>11.0513333333,51.8916666667,0 </coordinates></Point></Placemark><Placemark><name>Hamburg-
Bremen</name><Snippet></Snippet><styleUrl>#shp2kml</styleUrl><Point><extrude>0</extrude><altitudeMode>clampedToGround</altitudeMode><coordinates>8.8053333333,53.0728333333,0 </coordinates></Point></Placemark><Placemark><name>Havelberg</name><Snippet></Snippet><styleUrl>#shp2kml</styleUrl><Point><extrude>0</extrude><altitudeMode>clampedToGround</altitudeMode><coordinates>12.0859903586,52.8253333333,0 </coordinates></Point></Placemark><Placemark><name>Hildesheim</name><Snippet></Snippet><styleUrl>#shp2kml</styleUrl><Point><extrude>0</extrude><altitudeMode>clampedToGround</altitudeMode><coordinates>9.9516666667,52.1528333333,0 </coordinates></Point></Placemark><Placemark><name>Konstanz</name><Snippet></Snippet><styleUrl>#shp2kml</styleUrl><Point><extrude>0</extrude><altitudeMode>clampedToGround</altitudeMode><coordinates>9.1745000000,47.6670000000,0 </coordinates></Point></Placemark><Placemark><name>Köln</name><Snippet></Snippet><styleUrl>#shp2kml</styleUrl><Point><extrude>0</extrude><altitudeMode>clampedToGround</altitudeMode><coordinates>6.9546666667,50.9391666667,0 </coordinates></Point></Placemark><Placemark><name>Lebus</name><Snippet></Snippet><styleUrl>#shp2kml</styleUrl><Point><extrude>0</extrude><altitudeMode>clampedToGround</altitudeMode><coordinates>14.0696225538,52.4142433087,0 </coordinates></Point></Placemark><Placemark><name>Lübeck</name><Snippet></Snippet><styleUrl>#shp2kml</styleUrl><Point><extrude>0</extrude><altitudeMode>clampedToGround</altitudeMode><coordinates>10.6709167883,53.8946186278,0 </coordinates></Point></Placemark><Placemark><name>Magdeburg</name><Snippet></Snippet><styleUrl>#shp2kml</styleUrl><Point><extrude>0</extrude><altitudeMode>clampedToGround</altitudeMode><coordinates>11.5814275148,52.1177608405,0 </coordinates></Point></Placemark><Placemark><name>Mainz</name><Snippet></Snippet><styleUrl>#shp2kml</styleUrl><Point><extrude>0</extrude><altitudeMode>clampedToGround</altitudeMode><coordinates>8.2698333333,49.9920000000,0 </coordinates></Point></Placemark><Placemark><name>Meißen</name><Snippet></Snippet><styleUrl>#shp2kml</styleUrl><Point><extrude>0</extrude><altitudeMode>clampedToGround</altitudeMode><coordinates>13.4731666667,51.1581666667,0 </coordinates></Point></Placemark><Placemark><name>Merse-
burg</name><Snippet></Snippet><styleUrl>#shp2kml</styleUrl><Point><extrude>0</extrude><altitudeMode>clampedToGround</altitudeMode><coordinates>11.9883333333,51.3550000000,0 </coordinates></Point></Placemark><Placemark><name>Minden</name><Snippet></Snippet><styleUrl>#shp2kml</styleUrl><Point><extrude>0</extrude><altitudeMode>clampedToGround</altitudeMode><coordinates>8.9098333333,52.2888333333,0 </coordinates></Point></Placemark><Placemark><name>Münster</name><Snippet></Snippet><styleUrl>#shp2kml</styleUrl><Point><extrude>0</extrude><altitudeMode>clampedToGround</altitudeMode><coordinates>7.6233333333,51.9581666667,0 </coordinates></Point></Placemark><Placemark><name>Naumburg</name><Snippet></Snippet><styleUrl>#shp2kml</styleUrl><Point><extrude>0</extrude><altitudeMode>clampedToGround</altitudeMode><coordinates>11.8052050889,51.1155660869,0 </coordinates></Point></Placemark><Placemark><name>Osnabrück</name><Snippet></Snippet><styleUrl>#shp2kml</styleUrl><Point><extrude>0</extrude><altitudeMode>clampedToGround</altitudeMode><coordinates>8.0391666667,52.2740000000,0 </coordinates></Point></Placemark><Placemark><name>Paderborn</name><Snippet></Snippet><styleUrl>#shp2kml</styleUrl><Point><extrude>0</extrude><altitudeMode>clampedToGround</altitudeMode><coordinates>8.7550000000,51.7185000000,0 </coordinates></Point></Placemark><Placemark><name>Passau</name><Snippet></Snippet><styleUrl>#shp2kml</styleUrl><Point><extrude>0</extrude><altitudeMode>clampedToGround</altitudeMode><coordinates>13.4393920000,48.5740550000,0 </coordinates></Point></Placemark><Placemark><name>Ratzeburg</name><Snippet></Snippet><styleUrl>#shp2kml</styleUrl><Point><extrude>0</extrude><altitudeMode>clampedToGround</altitudeMode><coordinates>10.7540000000,53.7010000000,0 </coordinates></Point></Placemark><Placemark><name>Regensburg</name><Snippet></Snippet><styleUrl>#shp2kml</styleUrl><Point><extrude>0</extrude><altitudeMode>clampedToGround</altitudeMode><coordinates>12.0908333333,49.0170000000,0 </coordinates></Point></Placemark><Placemark><name>Schleswig</name><Snippet></Snippet><styleUrl>#shp2kml</styleUrl><Point><extrude>0</extrude><altitudeMode>clampedToGround</altitudeMode><coordinates>9.5685000000,54.5091666667,0 </coordinates></Point></Placemark><Placemark><name>Schwerin</name><Snippet></Snippet><styleUrl>#shp2kml</styleUrl><Point><extrude>0</extrude><altitudeMode>clampedToGround</altitudeMode><coordinates>11.4073333333,53.6245000000,0 </coordinates></Point></Placemark><Placemark><name>Speyer</name><Snippet></Snippet><styleUrl>#shp2kml</styleUrl><Point><extrude>0</extrude><altitudeMode>clampedToGround</altitudeMode><coordinates>8.4356180000,49.3126950000,0 </coordinates></Point></Placemark><Placemark><name>Trier</name><Snippet></Snippet><styleUrl>#shp2kml</styleUrl><Point><extrude>0</extrude><altitudeMode>clampedToGround</altitudeMode><coordinates>6.6398333333,49.7550000000,0 </coordinates></Point></Placemark><Placemark><name>Verden</name><Snippet></Snippet><styleUrl>#shp2kml</styleUrl><Point><extrude>0</extrude><altitudeMode>clampedToGround</altitudeMode><coordinates>9.2749702276,52.9224900516,0 </coordinates></Point></Placemark><Placemark><name>Worms</name><Snippet></Snippet><styleUrl>#shp2kml</styleUrl><Point><extrude>0</extrude><altitudeMode>clampedToGround</altitudeMode><coordinates>8.3570000000,49.6256666667,0 </coordinates></Point></Placemark><Placemark><name>Würzburg</name><Snippet></Snippet><styleUrl>#shp2kml</styleUrl><Point><extrude>0</extrude><altitudeMode>clampedToGround</altitudeMode><coordinates>9.9333333333,49.7903333333,0 </coordinates></Point></Placemark></Folder><Folder><name>Info</name><Snippet></Snippet><Style><BalloonStyle ><text>$[description]</text></BalloonStyle></Style><description><![CDATA[Source File: A_GesamtdateiPnts2.shp<br>Legend: Single Symbol<br>Label: SECONDARY<br><br><hr>ShapeFile to Google Earth<p><font color="blue"><b>Powered by Zonum Solutions</b><br> <i>www.zonums.com</i></font></p>]]></description></Folder></Document></kml>